[
  {
    "Name": "JY Square Mall",
    "Address": "1 Salinas Dr, Cebu City, Cebu",
    "Phone Number": "(032) 232 7235",
    "Website": "https://m.facebook.com/JY-Square-428866173828366/",
    "Latitude": 10.3306284,
    "Longitude": 123.89858239999998
  },
  {
    "Name": "Ayala Center Cebu",
    "Address": "Cardinal Rosales Ave, Cebu City, 4000 Cebu",
    "Phone Number": "(032) 888 3777",
    "Website": "https://www.sureseats.com/",
    "Latitude": 10.318132700000001,
    "Longitude": 123.9051272
  },
  {
    "Name": "Robinsons Mall",
    "Address": "Robinsons Mall, Cebu City, Cebu",
    "Phone Number": "",
    "Website": "",
    "Latitude": 10.309473599999999,
    "Longitude": 123.8942306
  },
  {
    "Name": "SM City Cebu",
    "Address": "Juan Luna Avenue, Cebu City, Cebu",
    "Phone Number": "(032) 231 0557",
    "Website": "https://www.smsupermalls.com/mall-locator/sm-city-cebu/information/",
    "Latitude": 10.3112522,
    "Longitude": 123.91766899999999
  },
  {
    "Name": "Garden Row, Ayala Malls Central Bloc",
    "Address": "Abad St, Cebu City, 6000 Cebu",
    "Phone Number": "",
    "Website": "",
    "Latitude": 10.328988899999999,
    "Longitude": 123.9061901
  },
  {
    "Name": "mall",
    "Address": "Cebu City, Cebu",
    "Phone Number": "0999 851 8230",
    "Website": "http://vivo.com/",
    "Latitude": 10.313388699999999,
    "Longitude": 123.9129066
  },
  {
    "Name": "Gaisano Country Mall",
    "Address": "Banilad Rd, Apas, Cebu City, 6000 Cebu",
    "Phone Number": "(032) 231 1481",
    "Website": "https://gaisanocountrymall.business.site/",
    "Latitude": 10.3394896,
    "Longitude": 123.91098449999998
  },
  {
    "Name": "Escario Central Mall",
    "Address": "N Escario St, Cebu City, 6000 Cebu",
    "Phone Number": "(032) 520 2222",
    "Website": "http://www.escariocentralhotel.com/",
    "Latitude": 10.317541199999999,
    "Longitude": 123.89404289999999
  },
  {
    "Name": "Ayala Terraces",
    "Address": "Biliran Rd, Cebu City, Cebu",
    "Phone Number": "(032) 233 2362",
    "Website": "http://ayalamallcebu.com/",
    "Latitude": 10.3184534,
    "Longitude": 123.9055778
  },
  {
    "Name": "CityMall--Cebu City",
    "Address": "Natalio B. Bacalso Ave, Cebu City, Cebu",
    "Phone Number": "",
    "Website": "",
    "Latitude": 10.298062900000001,
    "Longitude": 123.8944887
  },
  {
    "Name": "The Walk",
    "Address": "Abad St, Apas, Cebu City, 6000 Cebu",
    "Phone Number": "",
    "Website": "",
    "Latitude": 10.328309599999999,
    "Longitude": 123.9057363
  },
  {
    "Name": "One Pavillion",
    "Address": "One Pavilion Mall, 22 R. Duterte St. Banawa, Cebu City, 6000 Cebu",
    "Phone Number": "(032) 239 8888",
    "Website": "",
    "Latitude": 10.3152131,
    "Longitude": 123.88437700000001
  },
  {
    "Name": "Ayala Malls Central Bloc",
    "Address": "Central Bloc, I. Villa St, Apas, Cebu City, Cebu",
    "Phone Number": "(02) 410 8800",
    "Website": "https://www.facebook.com/AyalaMallsCentralBloc",
    "Latitude": 10.330664800000001,
    "Longitude": 123.9074206
  },
  {
    "Name": "Gaisano Grand Mall",
    "Address": "Villa St. Corner, Gica St, Dumanjug, 6035 Cebu",
    "Phone Number": "(032) 471 9980",
    "Website": "http://gaisanograndmalls.com/",
    "Latitude": 10.3318221,
    "Longitude": 123.9070393
  },
  {
    "Name": "Elizabeth Mall",
    "Address": "Natalio B. Bacalso Ave, Cebu City, Cebu",
    "Phone Number": "(032) 417 7735",
    "Website": "https://elizabethmall.business.site/?utm_source=gmb&utm_medium=referral",
    "Latitude": 10.297880099999999,
    "Longitude": 123.8952596
  },
  {
    "Name": "SM City Cebu",
    "Address": "Juan Luna Ave. cor. Cabahug and, Kaohsiung St, Cebu City, 6000 Cebu",
    "Phone Number": "(032) 231 3450",
    "Website": "https://www.smsupermalls.com/mall-locator/sm-city-cebu/information",
    "Latitude": 10.3120836,
    "Longitude": 123.9181639
  },
  {
    "Name": "Raintree Mall",
    "Address": "F. Ramos St, Cebu City, Cebu",
    "Phone Number": "",
    "Website": "",
    "Latitude": 10.3070056,
    "Longitude": 123.8965347
  },
  {
    "Name": "Ayala Center Cebu, Cardinal Rosales Avenue, Cebu City, Cebu",
    "Address": "Ayala Center, Cardinal Rosales Ave, Cebu City, Cebu",
    "Phone Number": "",
    "Website": "",
    "Latitude": 10.3172547,
    "Longitude": 123.90606749999999
  },
  {
    "Name": "APM Shopping Center",
    "Address": "A. Soriano Ave, Cebu City, Cebu",
    "Phone Number": "",
    "Website": "",
    "Latitude": 10.313668,
    "Longitude": 123.91723630000001
  },
  {
    "Name": "Gatewalk Central",
    "Address": "Mandaue City, Cebu",
    "Phone Number": "0935 224 4945",
    "Website": "http://www.ayalamalls.com.ph/",
    "Latitude": 10.3177478,
    "Longitude": 123.92240389999999
  },
  {
    "Name": "Plaza Nouvelle",
    "Address": "2 E Benedicto St, Cebu City, 6000 Cebu",
    "Phone Number": "",
    "Website": "http://nouvelledev.com/",
    "Latitude": 10.3096017,
    "Longitude": 123.90119529999998
  },
  {
    "Name": "The Ridges Commercial Center",
    "Address": "341 F. Cabahug St, Cebu City, 6000 Cebu",
    "Phone Number": "",
    "Website": "",
    "Latitude": 10.325132799999999,
    "Longitude": 123.9189614
  },
  {
    "Name": "SM Mall",
    "Address": "SM City Cebu, Cebu City, Cebu",
    "Phone Number": "(032) 231 0557",
    "Website": "https://www.smsupermalls.com/",
    "Latitude": 10.3120113,
    "Longitude": 123.91818560000002
  },
  {
    "Name": "Streetscape Mall Cebu",
    "Address": "Paseo Saturnino, Cebu City, 6000 Cebu",
    "Phone Number": "(032) 326 8188",
    "Website": "https://www.facebook.com/streetscapecebu/",
    "Latitude": 10.3450924,
    "Longitude": 123.909252
  },
  {
    "Name": "Robinson's Cybergate",
    "Address": "132 Don Mariano Cui St, Cebu City, 6000 Cebu",
    "Phone Number": "(032) 505 8955",
    "Website": "http://www.robinsonsmalls.com/mall-info/robinsons-cybergate-cebu",
    "Latitude": 10.310266,
    "Longitude": 123.89199500000001
  },
  {
    "Name": "Colonnade Mall Cebu",
    "Address": "Colon St, Cebu City, Cebu",
    "Phone Number": "(032) 254 0618",
    "Website": "",
    "Latitude": 10.29696,
    "Longitude": 123.8996358
  },
  {
    "Name": "Axis Entertainment Avenue",
    "Address": "Vibo Place, N Escario St, Lungsod ng Cebu, Lalawigan ng Cebu",
    "Phone Number": "(032) 412 2316",
    "Website": "http://www.facebook.com/axisentertainmentavenue",
    "Latitude": 10.318144,
    "Longitude": 123.89611099999999
  },
  {
    "Name": "Blu Pepper",
    "Address": "Ground Level Rustans Ayala Center, Bohol Avenue, Cebu City, 6000 Cebu",
    "Phone Number": "(032) 231 5641",
    "Website": "",
    "Latitude": 10.317885,
    "Longitude": 123.90370999999999
  },
  {
    "Name": "GPH CENTRAL",
    "Address": "Cebu City, Cebu",
    "Phone Number": "",
    "Website": "https://m.facebook.com/GPHCentral/?tsid=0.7305008382073885&source=result",
    "Latitude": 10.3232242,
    "Longitude": 123.9138269
  },
  {
    "Name": "LACOSTE Bags & Footwear",
    "Address": "Lvl 1 Ayala Center, Cebu Business Park, Cebu City, Cebu",
    "Phone Number": "",
    "Website": "",
    "Latitude": 10.3182653,
    "Longitude": 123.90445029999998
  },
  {
    "Name": "Robinsons Galleria Cebu",
    "Address": "Gen. Maxilom Avenue Extension, Sergio Osme�a Jr Boulevard, Cebu City, 6000 Cebu",
    "Phone Number": "(032) 231 5030",
    "Website": "http://www.robinsonsmalls.com/mall-info/robinsons-galleria-cebu",
    "Latitude": 10.3042376,
    "Longitude": 123.9110278
  },
  {
    "Name": "Active Zone",
    "Address": "Cebu City, Cebu",
    "Phone Number": "",
    "Website": "",
    "Latitude": 10.3195181,
    "Longitude": 123.9045562
  },
  {
    "Name": "Bumblebee",
    "Address": "2nd Floor Rustans Ayala Center, Bohol Avenue, Cebu City, 6000 Cebu",
    "Phone Number": "(032) 231 5641",
    "Website": "",
    "Latitude": 10.317885,
    "Longitude": 123.90370999999999
  },
  {
    "Name": "Ayala Center Cebu",
    "Address": "6000 Cardinal Rosales Ave, Cebu City, Cebu",
    "Phone Number": "(032) 243 4004",
    "Website": "",
    "Latitude": 10.3176899,
    "Longitude": 123.90393060000001
  },
  {
    "Name": "Banilad Town Centre",
    "Address": "Gov. M. Cuenco Ave, Cebu City, Cebu",
    "Phone Number": "(032) 345 3260",
    "Website": "http://www.facebook.com/btccebu/",
    "Latitude": 10.3408875,
    "Longitude": 123.9129611
  },
  {
    "Name": "City Soho Mall",
    "Address": "59 Mirasol St, Cebu City, Cebu",
    "Phone Number": "",
    "Website": "",
    "Latitude": 10.3086326,
    "Longitude": 123.88987200000001
  },
  {
    "Name": "Under Construction",
    "Address": "P. Almendras St, Cebu City, Cebu",
    "Phone Number": "",
    "Website": "",
    "Latitude": 10.3207272,
    "Longitude": 123.9131961
  },
  {
    "Name": "Gaisano Main",
    "Address": "Vicente Gullas St, Cebu City, Cebu",
    "Phone Number": "(032) 254 6391",
    "Website": "https://www.facebook.com/GaisanoMainInc/",
    "Latitude": 10.2976791,
    "Longitude": 123.9017775
  },
  {
    "Name": "Nike Women",
    "Address": "Ground Floor, Expansion Mall, Bohol Avenue, Ayala center, Cebu City, 6000",
    "Phone Number": "(032) 233 6336",
    "Website": "",
    "Latitude": 10.318403,
    "Longitude": 123.904471
  },
  {
    "Name": "138 Wholesale Mall",
    "Address": "Colon St, Cebu City, 160-8321 Cebu",
    "Phone Number": "0922 560 9452",
    "Website": "",
    "Latitude": 10.2972136,
    "Longitude": 123.9005468
  },
  {
    "Name": "Primeway Plaza",
    "Address": "176 F. Ramos St, Cebu City, 6000 Cebu",
    "Phone Number": "(032) 234 3424",
    "Website": "",
    "Latitude": 10.3090771,
    "Longitude": 123.8948533
  },
  {
    "Name": "U Boys",
    "Address": "Ground Level Rustans Ayala Center, Bohol Avenue, Cebu City, 6000 Cebu",
    "Phone Number": "(032) 231 5641",
    "Website": "",
    "Latitude": 10.317885,
    "Longitude": 123.90370999999999
  },
  {
    "Name": "Gingersnaps",
    "Address": "2nd Floor Rustans Ayala Center, Bohol Avenue, Cebu City, 6000 Cebu",
    "Phone Number": "(032) 231 5641",
    "Website": "",
    "Latitude": 10.317885,
    "Longitude": 123.90370999999999
  },
  {
    "Name": "Gatewalk Mall",
    "Address": "Mandaue City, Cebu",
    "Phone Number": "",
    "Website": "https://www.gatewalkcentral.com/",
    "Latitude": 10.3168492,
    "Longitude": 123.9256893
  },
  {
    "Name": "K & B",
    "Address": "Hernan Cortes St, Mandaue City, Cebu",
    "Phone Number": "(063) 322 3885",
    "Website": "",
    "Latitude": 10.3276966,
    "Longitude": 123.9218022
  },
  {
    "Name": "One Central Mall",
    "Address": "Cebu City, Cebu",
    "Phone Number": "",
    "Website": "",
    "Latitude": 10.2974397,
    "Longitude": 123.89582859999999
  },
  {
    "Name": "LWRS",
    "Address": "135 Central Nautical Hwy, Mandaue City, Cebu",
    "Phone Number": "0998 868 7879",
    "Website": "",
    "Latitude": 10.320827,
    "Longitude": 123.9219799
  },
  {
    "Name": "Cococaba�a",
    "Address": "SM City Cebu, Juan Luna Avenue, F. Cabahug Street, Cebu City, 6000 Cebu",
    "Phone Number": "(032) 231 0058",
    "Website": "",
    "Latitude": 10.312491999999999,
    "Longitude": 123.91867500000001
  },
  {
    "Name": "Next Jeans SM Department Store",
    "Address": "J. De Vera Street, Lungsod ng Cebu, Lalawigan ng Cebu",
    "Phone Number": "",
    "Website": "",
    "Latitude": 10.3115956,
    "Longitude": 123.9182939
  },
  {
    "Name": "Toeberries",
    "Address": "SM City Cebu, SM Department Store, Juan Luna Avenue Extension, Cebu City, 6000",
    "Phone Number": "(032) 231 0058",
    "Website": "",
    "Latitude": 10.311879,
    "Longitude": 123.91833199999999
  },
  {
    "Name": "Dollhouse",
    "Address": "Ground Level Rustans Ayala Center, Bohol Avenue, Cebu City, 6000",
    "Phone Number": "(032) 231 5641",
    "Website": "",
    "Latitude": 10.317885,
    "Longitude": 123.90370999999999
  }
]